station_name,station_id,lat,lng,total_rides_from,members_from_st,casuals_from_st,members_norm,casuals_norm
Dusable Museum,224,41.791574580034748,-87.6078665579542,758,512,246,0.67546174142480209,0.32453825857519791
Shields Ave & 28th Pl,544,41.842730359761084,-87.635491157993812,1033,512,521,0.49564375605033884,0.50435624394966116
Torrence Ave & 126th Pl,602,41.666303438532154,-87.5571850863266,7,1,6,0.14285714285714285,0.8571428571428571
Western Ave & 111th St,649,41.6912407390262,-87.681309557932011,5,1,4,0.2,0.8
Michigan Ave & 114th St,421,41.687018412731334,-87.621136621457026,12,1,11,0.083333333333333329,0.91666666666666663
Bradley Park,54,41.717891094242063,-87.5646195348444,30,1,29,0.033333333333333333,0.96666666666666667
Ashland Ave & 73rd St,20,41.761225534608833,-87.663361502829261,9,1,8,0.1111111111111111,0.88888888888888884
Major Taylor Trail & 124th St,406,41.668711705924714,-87.63719570363871,5,1,4,0.2,0.8
Torrence Ave & 106th St,601,41.702843532115509,-87.559849159623511,14,1,13,0.071428571428571425,0.9285714285714286
Halsted St & 104th St,277,41.705140021739133,-87.642392148550726,24,1,23,0.041666666666666664,0.95833333333333337
Elizabeth St & 92nd St,236,41.7268054036623,-87.6542908397978,113,1,112,0.0088495575221238937,0.99115044247787609
Burling St & Diversey Pkwy,68,41.933124118287516,-87.647757831663043,2575,1793,782,0.6963106796116505,0.3036893203883495
Clinton St & Madison St,158,41.882208881273407,-87.641087672904575,18036,14081,3955,0.78071634508760257,0.21928365491239743
Dauphin Ave & 103rd St,203,41.707281802245646,-87.607675668705113,23,2,21,0.086956521739130432,0.91304347826086951
Halsted St & 111th St,278,41.69228939664864,-87.6426951944472,20,2,18,0.1,0.9
Oglesby Ave & 100th St,468,41.713347383962578,-87.565885321173383,52,2,50,0.038461538461538464,0.96153846153846156
Ada St & 113th St,7,41.687469137931032,-87.655402183908052,15,2,13,0.13333333333333333,0.8666666666666667
N Green St & W Lake St,458,41.89,-87.65,5,2,3,0.4,0.6
Racine Ave & 61st St,496,41.783191925170065,-87.654373574829933,31,2,29,0.064516129032258063,0.93548387096774188
Mlk Jr Dr & 47th St,442,41.809856577051519,-87.616282585480278,998,258,740,0.25851703406813625,0.74148296593186369
Marshfield Ave & 59th St,413,41.786820489898986,-87.666204045454535,39,3,36,0.076923076923076927,0.92307692307692313
Vincennes Ave & 104th St,612,41.704956149122808,-87.657066885964923,9,3,6,0.33333333333333331,0.66666666666666663
Mtl-Eco5.1-01,455,41.9171,-87.7482,4,3,1,0.75,0.25
Cottage Grove Ave & Oakwood Blvd,181,41.822974455184479,-87.607086878362992,2242,771,1471,0.34388938447814449,0.65611061552185546
State St & 19th St,568,41.856604620647666,-87.627541594290221,2661,1539,1122,0.57835400225479139,0.42164599774520856
Clark St & Randolph St,147,41.884599442096388,-87.631868280771414,10580,6915,3665,0.6535916824196597,0.34640831758034024
Peoria St & Jackson Blvd,478,41.877632770915142,-87.6495927057876,10450,7427,3023,0.7107177033492823,0.2892822966507177
Stony Island Ave & 90th St,592,41.73135340858547,-87.585793943436968,28,4,24,0.14285714285714285,0.8571428571428571
Homewood Ave & 115th St,305,41.684593020167327,-87.670787886851443,6,4,2,0.66666666666666663,0.33333333333333331
State St & 123rd St,567,41.67066608815999,-87.622736036410572,21,4,17,0.19047619047619047,0.80952380952380953
Oakley Ave & Touhy Ave,463,42.012332209516494,-87.688233173190071,645,260,385,0.40310077519379844,0.5968992248062015
Racine Ave & 18th St,494,41.858183897357847,-87.656488581026252,4302,2820,1482,0.6555090655509066,0.34449093444909346
Ellis Ave & 60th St,240,41.78510638094864,-87.601080716467578,5914,3844,2070,0.64998309097057827,0.35001690902942173
Larrabee St & Armitage Ave,367,41.918086224588322,-87.643741278605376,7904,5124,2780,0.64827935222672062,0.35172064777327933
Damen Ave & 59th St,184,41.7860193501805,-87.674168072202164,129,5,124,0.03875968992248062,0.96124031007751942
Dodge Ave & Main St,216,42.034668510969531,-87.6991820731436,7,5,2,0.7142857142857143,0.2857142857142857
Halsted St & 78th St,290,41.752498124996883,-87.643846167276891,45,5,40,0.1111111111111111,0.88888888888888884
Cottage Grove Ave & 111th Pl,172,41.691694782149376,-87.610002214689061,32,6,26,0.1875,0.8125
Ashland Ave & 74th St,21,41.759219399843928,-87.663487162199317,19,6,13,0.31578947368421051,0.68421052631578949
Burnham Greenway & 105th St,70,41.704598845374143,-87.528314942043934,35,6,29,0.17142857142857143,0.82857142857142863
Shields Ave & 43rd St,546,41.816203763938248,-87.634801828653067,40,6,34,0.15,0.85
2112 W Peterson Ave,1,41.991161729691875,-87.683592172455647,806,518,288,0.64267990074441683,0.35732009925558311
Clark St & Schreiber Ave,149,41.999255942024618,-87.671374550537081,2311,1542,769,0.66724361748160965,0.33275638251839029
Loomis Blvd & 84th St,401,41.741505908630629,-87.65841060431039,99,7,92,0.0707070707070707,0.92929292929292928
Damen Ave & 51st St,183,41.800910108024695,-87.6746855925926,77,7,70,0.090909090909090912,0.90909090909090906
Clyde Ave & 87th St,164,41.737161096769476,-87.572725853771658,24,7,17,0.29166666666666669,0.70833333333333337
Marquette Ave & 89th St,411,41.73368679967362,-87.558398620117771,29,7,22,0.2413793103448276,0.75862068965517238
South Chicago Ave & Elliot Ave,550,41.747358065359478,-87.58004314379086,26,7,19,0.26923076923076922,0.73076923076923073
Constance Ave & 95th St,169,41.722334433732073,-87.579046956502921,22,7,15,0.31818181818181818,0.68181818181818177
Carpenter St & 63rd St,101,41.779877170138896,-87.6509123888889,23,7,16,0.30434782608695654,0.69565217391304346
Jeffery Blvd & 91st St,323,41.729741798366994,-87.575846654498633,13,7,6,0.53846153846153844,0.46153846153846156
Dorchester Ave & 63rd St,219,41.780411789382107,-87.591395891682424,867,263,604,0.30334486735870819,0.69665513264129186
Eberhart Ave & 91st St,229,41.729265964660016,-87.611815654764484,96,8,88,0.083333333333333329,0.91666666666666663
Stewart Ave & 83rd St,585,41.743712807692305,-87.63408956125356,59,8,51,0.13559322033898305,0.864406779661017
Racine Ave & 65th St,497,41.775395786904767,-87.654306590476182,65,8,57,0.12307692307692308,0.87692307692307692
Dauphin Ave & 87th St,204,41.736513836450371,-87.6012613459836,39,8,31,0.20512820512820512,0.79487179487179482
Ashland Ave & 78th St,22,41.752214965145569,-87.663721892480723,98,8,90,0.081632653061224483,0.91836734693877553
Calumet Ave & 21st St,86,41.854187860132839,-87.619164846487635,2394,1288,1106,0.53801169590643272,0.46198830409356723
Damen Ave & Chicago Ave,186,41.895762396252628,-87.677196952948,8478,5896,2582,0.695447039396084,0.304552960603916
Broadway & Cornelia Ave,59,41.94552275103802,-87.646432521233308,17601,11528,6073,0.65496278620532922,0.34503721379467078
Summit Ave & 86th St,595,41.737853802198579,-87.644905826385127,42,9,33,0.21428571428571427,0.7857142857142857
Major Taylor Trail & 115th St,405,41.68495129040997,-87.645298009670455,39,9,30,0.23076923076923078,0.76923076923076927
Halsted St & 73rd St,289,41.7616096254613,-87.644153162811762,37,9,28,0.24324324324324326,0.7567567567567568
Ellis Ave & 83rd St,241,41.744125295061735,-87.5990420574074,131,9,122,0.068702290076335881,0.93129770992366412
Ewing Ave & Burnham Greenway,248,41.712726052773739,-87.534735841063423,20,9,11,0.45,0.55
Lincolnwood Dr & Central St,399,42.064858400981059,-87.7152864731919,706,521,185,0.73796033994334276,0.26203966005665724
Wabash Ave & Adams St,620,41.8794823159481,-87.625708062019825,8070,4105,3965,0.50867410161090454,0.49132589838909541
Wabash Ave & Roosevelt Rd,623,41.86721864991523,-87.6259715726802,20545,12297,8248,0.59853979070333418,0.40146020929666587
Walden Pkwy & 100th St,626,41.71222240468969,-87.667718583813226,34,10,24,0.29411764705882354,0.70588235294117652
Throop St & Taylor St,600,41.868930180750169,-87.659121733747213,1235,1034,201,0.83724696356275308,0.16275303643724695
California Ave & Cortez St,77,41.900374321127607,-87.696701770726975,3902,2570,1332,0.65863659661711937,0.34136340338288057
Wacker Dr & Washington St,625,41.883145763760531,-87.637312481387326,6493,4618,1875,0.711227475743108,0.28877252425689204
Wells St & Concord Ln,635,41.912117472486614,-87.6346789945954,24456,15114,9342,0.61800785083415111,0.38199214916584889
Elizabeth St & 59th St,235,41.786692384615378,-87.655865307692324,30,11,19,0.36666666666666664,0.6333333333333333
Greenwood Ave & 97th St,275,41.718719156609019,-87.596995240572028,85,11,74,0.12941176470588237,0.87058823529411766
Houston Ave & 92nd St,307,41.72820267926992,-87.54967311146099,64,11,53,0.171875,0.828125
Greenwood Ave & 79th St,273,41.751293636029416,-87.5975509750817,176,12,164,0.068181818181818177,0.93181818181818177
Mccormick Place,420,41.851391811499838,-87.618827507046873,1898,1036,862,0.5458377239199157,0.4541622760800843
Broadway & Barry Ave,56,41.937610986894796,-87.6440983030684,23167,15372,7795,0.66353002115077486,0.33646997884922519
Rhodes Ave & 71st St,510,41.766001867383515,-87.611722197132622,51,13,38,0.25490196078431371,0.74509803921568629
Halsted St & 96th St,291,41.719716837462705,-87.6429555822605,42,13,29,0.30952380952380953,0.69047619047619047
Kostner Ave & Lake St,349,41.885924547854785,-87.735402516501651,43,13,30,0.30232558139534882,0.69767441860465118
Lakefront Trail & Bryn Mawr Ave,361,41.984005709291417,-87.652301565706509,15460,8973,6487,0.58040103492884865,0.41959896507115135
Knox Ave & Montrose Ave,346,41.960629232588275,-87.745375401846474,499,270,229,0.5410821643286573,0.4589178356713427
Hoyne Ave & Balmoral Ave,309,41.979868463620278,-87.68192502549978,1150,782,368,0.68,0.32
Halsted St & Willow St,300,41.913866582869538,-87.648763209936249,8145,5390,2755,0.66175567833026394,0.33824432166973606
Ashland Ave & 69th St,19,41.768722237410074,-87.66407234292565,56,15,41,0.26785714285714285,0.7321428571428571
State St & 95th St,575,41.72173362262626,-87.622844470101015,87,15,72,0.17241379310344829,0.82758620689655171
South Chicago Ave & 83rd St,549,41.74392303787878,-87.575226679653682,80,15,65,0.1875,0.8125
Indiana Ave & 40th St,317,41.821685594889466,-87.621579043927639,580,271,309,0.46724137931034482,0.53275862068965518
Prairie Ave & Garfield Blvd,485,41.794870068143815,-87.61870291374025,595,271,324,0.45546218487394957,0.54453781512605037
Wentworth Ave & 33rd St,644,41.834524126126084,-87.631819151203189,853,527,326,0.61781946072684646,0.3821805392731536
Dodge Ave & Church St,215,42.048306590242341,-87.698261935693012,780,527,253,0.67564102564102568,0.32435897435897437
Leavitt St & Addison St,381,41.946645130677744,-87.6833553508664,1648,1039,609,0.63046116504854366,0.36953883495145629
Shore Dr & 55th St,547,41.795234191804489,-87.580744040917082,10680,4879,5801,0.45683520599250937,0.54316479400749063
Cicero Ave & Quincy St,122,41.877616171503952,-87.74540100263853,178,16,162,0.0898876404494382,0.9101123595505618
Ridge Blvd & Howard St,512,42.019277243628444,-87.684513866029533,531,272,259,0.512241054613936,0.487758945386064
Cicero Ave & Lake St,121,41.886834461187213,-87.745275216894981,107,17,90,0.15887850467289719,0.84112149532710279
Kedzie Ave & Lake St,331,41.884580430671377,-87.706262977424316,775,529,246,0.68258064516129036,0.3174193548387097
Glenwood Ave & Morse Ave,265,42.0079574812137,-87.6654923876204,3627,2065,1562,0.569341053212021,0.43065894678797906
Sheridan Rd & Montrose Ave,542,41.961660175008952,-87.654630129840683,11301,6929,4372,0.61313158127599332,0.38686841872400674
Lake Shore Dr & Diversey Pkwy,356,41.93258684168309,-87.6364234127472,17512,9745,7767,0.55647555961626316,0.44352444038373684
Kenton Ave & Madison St,336,41.880706732741615,-87.741018140039444,80,18,62,0.225,0.775
Ashland Ave & 66th St,18,41.774078419590637,-87.663794831871343,56,18,38,0.32142857142857145,0.6785714285714286
Cottage Grove Ave & 71st St,178,41.765714976050482,-87.604974430307109,88,18,70,0.20454545454545456,0.79545454545454541
Southport Ave & Irving Park Rd,557,41.954174395839345,-87.664357288238136,5340,3602,1738,0.67453183520599247,0.32546816479400748
May St & 69th St,415,41.768928446327685,-87.65292611158192,53,19,34,0.35849056603773582,0.64150943396226412
Cicero Ave & Flournoy St,120,41.8721260863747,-87.7466175109489,60,19,41,0.31666666666666665,0.68333333333333335
Orleans St & Hubbard St,471,41.890006269772712,-87.636610172887174,5811,4115,1696,0.70813973498537253,0.29186026501462742
Vincennes Ave & 75th St,613,41.757975278645837,-87.631207223958327,67,20,47,0.29850746268656714,0.70149253731343286
Stewart Ave & 63rd St,584,41.779834211538464,-87.634777174145285,66,20,46,0.30303030303030304,0.696969696969697
Kedzie Ave & Bryn Mawr Ave,327,41.982382152061035,-87.708913159397085,1019,532,487,0.52208047105004907,0.47791952894995093
Western Ave & Congress Pkwy,653,41.874716790414105,-87.686379868813518,2279,1300,979,0.57042562527424312,0.42957437472575694
Emerald Ave & 28th St,244,41.843592826562144,-87.6453808197909,2107,1556,551,0.73849074513526336,0.26150925486473658
Throop St & 52nd St,599,41.799660750980394,-87.6571707509804,85,21,64,0.24705882352941178,0.75294117647058822
Halsted St & 56th St,285,41.792940402767641,-87.644997466844771,81,21,60,0.25925925925925924,0.7407407407407407
Cottage Grove Ave & 83rd St,180,41.74343344674557,-87.604833423734391,232,21,211,0.090517241379310345,0.90948275862068961
Ashland Ave & 63rd St,17,41.779376526666667,-87.6648435025,88,21,67,0.23863636363636365,0.76136363636363635
Cottage Grove Ave & 43rd St,173,41.816522936686788,-87.6065869644534,1209,533,676,0.44086021505376344,0.55913978494623651
Theater On The Lake,597,41.926278238379837,-87.63084239792326,28724,14357,14367,0.4998259295362763,0.50017407046372375
Bennett Ave & 79th St,46,41.751792914772729,-87.578500970643944,98,22,76,0.22448979591836735,0.77551020408163263
Central Park Ave & Bloomingdale Ave,108,41.914169991194974,-87.7167599278695,2015,790,1225,0.39205955334987591,0.607940446650124
Canal St & Taylor St,99,41.87025452249167,-87.639473614479243,4260,2839,1421,0.66643192488262915,0.33356807511737091
Indiana Ave & 103rd St,314,41.70716823775053,-87.618435249409686,75,24,51,0.32,0.68
Ashland Ave & 13th St,15,41.865239364255345,-87.666506791650079,2318,1816,502,0.78343399482312337,0.21656600517687663
California Ave & Francis Pl,80,41.9185014717346,-87.6974094849456,3264,2072,1192,0.63480392156862742,0.36519607843137253
Cannon Dr & Fullerton Ave,100,41.926763704793828,-87.634426808906809,7341,2840,4501,0.38686827407710123,0.61313172592289877
Franklin St & Chicago Ave,260,41.896740511156871,-87.635684001073614,10618,7704,2914,0.72556036918440381,0.27443963081559614
Ashland Ave & 50th St,16,41.803032728464416,-87.66468601935081,119,25,94,0.21008403361344538,0.78991596638655459
Laramie Ave & Gladys Ave,364,41.875807065476188,-87.7552911297619,74,25,49,0.33783783783783783,0.66216216216216217
Richmond St & Diversey Ave,511,41.9318905533113,-87.701183590713924,1894,1049,845,0.55385427666314679,0.44614572333685321
Delano Ct & Roosevelt Rd,211,41.867494401573893,-87.632189727982052,5138,3097,2041,0.60276372129233169,0.39723627870766837
Clarendon Ave & Gordon Ter,125,41.957923880627831,-87.6495182140918,9987,6681,3306,0.66896966055872631,0.33103033944127364
Laramie Ave & Kinzie St,365,41.887824479302836,-87.75552837145969,75,26,49,0.34666666666666668,0.65333333333333332
East End Ave & 87th St,225,41.736806473161238,-87.58281941445766,54,26,28,0.48148148148148145,0.51851851851851849
Chicago Ave & Washington St,118,42.0325592893233,-87.67911243260653,3229,2074,1155,0.64230411892226691,0.35769588107773304
Adler Planetarium,9,41.866098194981959,-87.607277089036316,12376,6170,6206,0.49854557207498384,0.50145442792501616
Cottage Grove Ave & 78th St,179,41.753184922456128,-87.605022908771929,237,27,210,0.11392405063291139,0.88607594936708856
Halsted St & 59th St,286,41.787533838414639,-87.644880773374,91,27,64,0.2967032967032967,0.70329670329670335
Damen Ave & Sunnyside Ave,199,41.963264645444653,-87.679273834057852,2737,1819,918,0.6645962732919255,0.33540372670807456
Clinton St & Tilden St,161,41.8758952470018,-87.640787663161973,3055,2331,724,0.76301145662847791,0.23698854337152209
Ellis Ave & 53rd St,237,41.799332697659544,-87.60097287595697,4195,2843,1352,0.67771156138259836,0.3222884386174017
Lasalle St & Adams St,375,41.879343297965512,-87.631967551267948,3908,2843,1065,0.727482088024565,0.272517911975435
Evans Ave & 75th St,246,41.7584954808642,-87.606405705555559,131,28,103,0.21374045801526717,0.7862595419847328
Vernon Ave & 79th St,611,41.750938286838341,-87.613769804005727,114,28,86,0.24561403508771928,0.75438596491228072
Morgan Ave & 14th Pl,449,41.862384989032343,-87.651078655384111,3108,2332,776,0.7503217503217503,0.24967824967824967
Wood St & Chicago Ave,675,41.895627595564925,-87.672078180526228,3512,2588,924,0.7369020501138952,0.2630979498861048
Ashland Ave & Wellington Ave,35,41.936082131524088,-87.669810054542552,4613,3356,1257,0.72750921309343164,0.27249078690656842
Clark St & North Ave,146,41.911975766916157,-87.631943087520327,10875,5660,5215,0.52045977011494249,0.47954022988505746
Milwaukee Ave & Grand Ave,438,41.891585368528041,-87.6483739822385,12893,8732,4161,0.67726673388660519,0.32273326611339487
Baltimore Ave & 87th St,44,41.737337189205249,-87.548496588455421,85,29,56,0.3411764705882353,0.6588235294117647
Prospect Sq & 91st St,488,41.728120129367625,-87.667567069774918,149,29,120,0.19463087248322147,0.80536912751677847
Elizabeth St & 47th St,234,41.808395698453616,-87.6565254347079,99,29,70,0.29292929292929293,0.70707070707070707
Lake Park Ave & 35th St,351,41.831275652901695,-87.6087894057451,3890,1309,2581,0.33650385604113109,0.66349614395886891
Franklin St & Adams St,259,41.879407952218287,-87.635484343001607,5080,3101,1979,0.61043307086614174,0.38956692913385826
Wabash Ave & Grand Ave,622,41.891466805450179,-87.626769780723833,21552,12317,9235,0.57150148478099483,0.42849851521900517
Eggleston Ave & 92nd St,232,41.727618023133317,-87.634876090900633,58,30,28,0.51724137931034486,0.48275862068965519
Central Park Ave & North Ave,110,41.909665343343221,-87.716624748640712,1095,542,553,0.49497716894977167,0.50502283105022827
State St & 76th St,573,41.757460342592594,-87.624620000000007,72,31,41,0.43055555555555558,0.56944444444444442
Latrobe Ave & Chicago Ave,379,41.894738800514794,-87.756895548906058,113,31,82,0.27433628318584069,0.72566371681415931
Central Ave & Chicago Ave,103,41.8949636294843,-87.764906962070256,435,287,148,0.65977011494252868,0.34022988505747126
Washtenaw Ave & Lawrence Ave,631,41.968948696418835,-87.696047773556344,2695,1823,872,0.67643784786641925,0.32356215213358069
Leavitt St & Chicago Ave,385,41.895500220912254,-87.682002302332862,3941,2591,1350,0.65744734838873387,0.34255265161126619
Exchange Ave & 79th St,249,41.751994293183941,-87.552964968253988,168,32,136,0.19047619047619047,0.80952380952380953
Calumet Ave & 71st St,90,41.765530495468795,-87.616895824839233,144,32,112,0.22222222222222221,0.77777777777777779
Paulina St & 18th St,474,41.857902389416971,-87.668718481411048,3811,2593,1218,0.68039884544738916,0.31960115455261084
Racine Ave & Wrightwood Ave,504,41.928886751182169,-87.6589726162571,5330,3617,1713,0.67861163227016885,0.32138836772983115
Lake Shore Dr & Monroe St,357,41.880966330551821,-87.6167410005447,28445,8737,19708,0.30715415714536826,0.6928458428546318
Clark St & Drummond Pl,134,41.931239776703016,-87.644322914143942,16923,10785,6138,0.63729835135614255,0.36270164864385745
Halsted St & 51st St,284,41.801823003579983,-87.6452130983938,101,34,67,0.33663366336633666,0.6633663366336634
Central Ave & Harrison St,104,41.873000019262982,-87.764300102596323,198,34,164,0.17171717171717171,0.82828282828282829
Big Marsh Park,49,41.685971441806359,-87.5734467604595,104,34,70,0.32692307692307693,0.67307692307692313
Keystone Ave & Montrose Ave,338,41.961071302918349,-87.7289309108702,871,291,580,0.33409873708381171,0.66590126291618834
Clinton St & Polk St,159,41.87148516945328,-87.640934217706189,814,547,267,0.671990171990172,0.32800982800982803
Ashland Ave & Belle Plaine Ave,25,41.956070115284739,-87.66881878603229,2656,1571,1085,0.59149096385542166,0.40850903614457829
Clark St & Wellington Ave,151,41.9364969776682,-87.647539603276968,15359,10275,5084,0.66898886646266031,0.33101113353733969
Kimbark Ave & 53rd St,343,41.799583996160635,-87.594735428020016,7798,4900,2898,0.62836624775583483,0.37163375224416517
Sheffield Ave & Kingsbury St,530,41.910530869059073,-87.653112292473452,10376,7716,2660,0.743639167309175,0.256360832690825
Karlov Ave & Madison St,324,41.880858635555555,-87.72790787444444,134,37,97,0.27611940298507465,0.72388059701492535
Calumet Ave & 51st St,89,41.802291697620845,-87.618066953403158,823,293,530,0.35601458080194409,0.64398541919805585
Shields Ave & 31st St,545,41.838458775910354,-87.635388754222916,1923,1574,349,0.81851274050962042,0.18148725949037961
Malcolm X College,407,41.877612168126092,-87.673878093597992,870,551,319,0.6333333333333333,0.36666666666666664
Central Park Ave & 24th St,107,41.848101602192983,-87.715074678947389,179,40,139,0.22346368715083798,0.776536312849162
Michigan Ave & 14th St,422,41.864105762982994,-87.623728590319487,10821,6696,4125,0.61879678403105076,0.38120321596894924
Rush St & Superior St,518,41.895765735485206,-87.625953523120842,13522,8232,5290,0.60878568259133259,0.39121431740866736
Woodlawn Ave & 75th St,680,41.75917593214286,-87.595763677380958,74,41,33,0.55405405405405406,0.44594594594594594
South Shore Dr & 67th St,551,41.773660404618745,-87.567521440404619,1693,553,1140,0.3266391021854696,0.67336089781453046
Warren Park West,630,42.001768579834618,-87.688804208842242,1246,553,693,0.4438202247191011,0.5561797752808989
Sedgwick St & Webster Ave,525,41.922181328985545,-87.6389032617424,10437,6953,3484,0.66618760180128389,0.33381239819871611
Wood St & Hubbard St,676,41.889898391641665,-87.671485798977258,2735,1834,901,0.67056672760511882,0.32943327239488118
Seeley Ave & Garfield Blvd,526,41.794092492625367,-87.6754840538348,121,43,78,0.35537190082644626,0.64462809917355368
Kedzie Ave & Foster Ave,329,41.975675190041095,-87.7092713086131,1174,555,619,0.47274275979557068,0.52725724020442932
Damen Ave & Walnut (Lake) St,201,41.885968553446631,-87.677001734755365,1185,811,374,0.68438818565400839,0.31561181434599156
Wolcott (Ravenswood) Ave & Montrose Ave,670,41.961408607566916,-87.6761819029686,4212,2859,1353,0.67877492877492873,0.32122507122507121
Pulaski Rd & Congress Pkwy,489,41.874321552440286,-87.7257407886812,145,45,100,0.31034482758620691,0.68965517241379315
Wabash Ave & 83rd St,617,41.743312780885773,-87.622832242424266,137,45,92,0.32846715328467152,0.67153284671532842
Drake Ave & Fullerton Ave,221,41.924395586869771,-87.7154265874617,2465,1581,884,0.64137931034482754,0.35862068965517241
Benson Ave & Church St,47,42.048205401363951,-87.683488295803556,3821,2094,1727,0.54802407746663173,0.45197592253336821
Wabash Ave & 16th St,616,41.860395860064081,-87.62580993442856,7989,5422,2567,0.678683189385405,0.32131681061459505
Halsted St & Clybourn Ave,293,41.909663758966964,-87.6481147662771,12652,9006,3646,0.71182421751501734,0.2881757824849826
Hubbard St Bike Checking (Lbs-Wh-Test),311,41.889968211027167,-87.680600028705584,48,47,1,0.97916666666666663,0.020833333333333332
Buckingham Fountain,66,41.876501588687539,-87.6205308901301,11929,2351,9578,0.19708273954229188,0.80291726045770806
Michigan Ave & 71st St,424,41.765292028333342,-87.621743631666661,84,48,36,0.5714285714285714,0.42857142857142855
State St & 29th St,569,41.841706992522084,-87.626932387718085,737,304,433,0.412483039348711,0.587516960651289
Wabash Ave & Cermak Rd,621,41.85261712959462,-87.626485633340351,2218,1328,890,0.59873760144274124,0.40126239855725881
Racine Ave & Belmont Ave,498,41.939716925166238,-87.658867236064651,9084,5424,3660,0.59709379128137385,0.40290620871862615
Halsted St & 69th St,288,41.769065298976969,-87.644612814113373,89,49,40,0.550561797752809,0.449438202247191
Dearborn St & Monroe St,209,41.881282548492727,-87.629546436129615,13906,10033,3873,0.72148712785847835,0.27851287214152165
Central Park Blvd & 5th Ave,112,41.875684709689068,-87.7154763329718,213,50,163,0.23474178403755869,0.76525821596244137
Southport Ave & Belmont Ave,554,41.939310584932876,-87.663804081570731,7143,4402,2741,0.61626767464650711,0.38373232535349294
Clark St & Newport St,145,41.944530299160832,-87.654688763763758,10714,5938,4776,0.55422811274967332,0.44577188725032668
Columbus Dr & Randolph St,165,41.884696088214653,-87.619525996983867,23241,14386,8855,0.61899229809388578,0.38100770190611422
Mlk Jr Dr & Pershing Rd,446,41.824608164532052,-87.616790928804647,1929,1076,853,0.55780196993260756,0.44219803006739244
Cottage Grove Ave & 47th St,174,41.809867093645487,-87.6067686980057,1319,565,754,0.42835481425322214,0.57164518574677792
Glenwood Ave & Touhy Ave,266,42.012687190563504,-87.666056696491864,1384,822,562,0.59393063583815031,0.40606936416184969
Loomis St & Archer Ave,402,41.841628251101142,-87.65742895971087,1216,823,393,0.67680921052631582,0.32319078947368424
Clark St & Berwyn Ave,130,41.977992992399074,-87.668033078971675,8143,5175,2968,0.63551516640058947,0.36448483359941053
W Armitage Ave & N Sheffield Ave,614,41.92,-87.65,108,56,52,0.51851851851851849,0.48148148148148145
California Ave & 21st St,72,41.853809264086465,-87.695733936681592,853,568,285,0.66588511137162953,0.33411488862837047
Ravenswood Ave & Berteau Ave,506,41.9579154548327,-87.673572828976262,2462,1848,614,0.75060926076360679,0.24939073923639318
Southport Ave & Wellington Ave,560,41.935727206933429,-87.663583988827867,8952,5944,3008,0.66398570151921354,0.3360142984807864
Halsted St & 35th St,281,41.830679928898192,-87.647169521730859,1269,825,444,0.65011820330969272,0.34988179669030733
Ashland Ave & Grace St,30,41.950685952222244,-87.66869975284601,4254,2617,1637,0.61518570756934654,0.38481429243065352
California Ave & Milwaukee Ave,82,41.922687805448916,-87.697151568788641,7719,4665,3054,0.60435289545277882,0.39564710454722113
Burnham Harbor,71,41.8562596687226,-87.61333579038,12447,9273,3174,0.744998794890335,0.25500120510966495
Racine Ave & Washington Blvd,503,41.883079929606453,-87.656966467634788,2550,1850,700,0.72549019607843135,0.27450980392156865
Fort Dearborn Dr & 31st St,257,41.838559902345416,-87.608213816227547,9492,3898,5594,0.410661609776654,0.589338390223346
May St & Taylor St,417,41.869481287070066,-87.65548832681624,6752,4922,1830,0.72896919431279616,0.27103080568720378
Kilbourn Ave & Milwaukee Ave,340,41.948812272739652,-87.739996822440077,582,315,267,0.54123711340206182,0.45876288659793812
Milwaukee Ave & Wabansia Ave,440,41.912613690623715,-87.6813952263912,9851,6460,3391,0.65577098771698306,0.34422901228301694
Ritchie Ct & Banks St,514,41.90686514992737,-87.626230914248836,10877,6716,4161,0.6174496644295302,0.3825503355704698
Phillips Ave & 79th St,480,41.751816639486265,-87.565208860215066,275,61,214,0.22181818181818183,0.7781818181818182
Broadway & Berwyn Ave,58,41.978360871037054,-87.659762489999764,7026,4669,2357,0.66453173925419873,0.33546826074580133
Lake Shore Dr & Wellington Ave,360,41.936692984442686,-87.636830108932145,20747,12349,8398,0.5952185858196366,0.40478141418036345
Central Ave & Lake St,105,41.887670645833332,-87.765472369391,192,62,130,0.32291666666666669,0.67708333333333337
Mlk Jr Dr & 83rd St,445,41.743110219187663,-87.614802224789912,120,62,58,0.51666666666666672,0.48333333333333334
Marshfield Ave & 44th St,412,41.814004985795464,-87.6665998342803,163,63,100,0.38650306748466257,0.61349693251533743
Phillips Ave & 83rd St,481,41.744527993144821,-87.565065829048848,186,64,122,0.34408602150537637,0.65591397849462363
South Shore Dr & 74th St,553,41.762251393541312,-87.55929670987274,800,320,480,0.4,0.6
Wells St & 19th St,634,41.856798997583908,-87.633873178660792,1831,832,999,0.454396504642272,0.545603495357728
Jefferson St & Monroe St,319,41.880415252351369,-87.64272540190963,7278,5185,2093,0.7124209947787854,0.2875790052212146
Leavitt St & Lawrence Ave,387,41.968890055555562,-87.683994734995252,2275,1346,929,0.59164835164835161,0.40835164835164833
Clark St & Elmdale Ave,136,41.99050880283226,-87.669806697985422,2824,1858,966,0.65793201133144474,0.34206798866855526
Financial Pl & Ida B Wells Dr,256,41.875019090352367,-87.6330943886554,5328,3906,1422,0.73310810810810811,0.26689189189189189
Wentworth Ave & 63rd St,646,41.780084663837407,-87.629735678048519,171,67,104,0.391812865497076,0.60818713450292394
Wells St & Polk St,640,41.8725998171498,-87.633520945416777,9361,5956,3405,0.63625681016985369,0.36374318983014636
State St & 54th St,572,41.7966261176728,-87.625915232720914,180,69,111,0.38333333333333336,0.6166666666666667
Conservatory Dr & Lake St,168,41.885498851095718,-87.7168227019608,696,325,371,0.46695402298850575,0.53304597701149425
Southport Ave & Clark St,555,41.957087530326504,-87.664199204338118,2926,2117,809,0.72351332877648666,0.27648667122351334
Western Ave & Fillmore St,655,41.868602019141171,-87.6861816551053,2692,2117,575,0.78640416047548289,0.21359583952451708
Dorchester Ave & 49th St,218,41.805806946089426,-87.592495484372677,1097,582,515,0.5305378304466728,0.46946216955332726
Wolcott Ave & Polk St,672,41.871275074640387,-87.673687465059743,8016,6982,1034,0.87100798403193613,0.12899201596806387
Drake Ave & Montrose Ave,222,41.96116908861093,-87.716523900888532,958,583,375,0.60855949895615868,0.39144050104384132
Western Ave & Lunt Ave,659,42.008573025221452,-87.690472888358073,1772,1351,421,0.76241534988713322,0.23758465011286681
Calumet Ave & 33rd St,87,41.834892284003125,-87.617920231446149,3331,2375,956,0.71299909936955874,0.28700090063044131
Cityfront Plaza Dr & Pioneer Ct,123,41.890562863377575,-87.62208650134103,11152,6215,4937,0.55729913916786222,0.44270086083213772
Laramie Ave & Madison St,366,41.880209189095126,-87.75533933372003,225,72,153,0.32,0.68
Wentworth Ave & Cermak Rd,647,41.853078817644665,-87.631739210724788,4698,2632,2066,0.5602383993188591,0.4397616006811409
Ashland Ave & Garfield Blvd,29,41.792828108955227,-87.664323139800985,168,73,95,0.43452380952380953,0.56547619047619047
Racine Ave & Garfield Blvd,501,41.794222610662352,-87.655081213516439,282,73,209,0.25886524822695034,0.74113475177304966
Marshfield Ave & Cortland St,414,41.916012708416282,-87.668889792853676,7265,5193,2072,0.71479697178251889,0.28520302821748106
Calumet Ave & 35th St,88,41.831398192321046,-87.618020441510311,1415,842,573,0.59505300353356894,0.40494699646643112
Aberdeen St & Jackson Blvd,4,41.877720779404505,-87.654792138860145,8693,6474,2219,0.74473714482917286,0.25526285517082709
State St & 35th St,571,41.831007111316552,-87.627204928300841,2291,1611,680,0.70318638149279789,0.29681361850720211
Commercial Ave & 83rd St,167,41.74480384122289,-87.551318969756736,229,76,153,0.33187772925764192,0.66812227074235808
Talman Ave & Addison St,596,41.946624256088441,-87.694616383056328,2065,1356,709,0.65665859564164653,0.34334140435835353
Greenview Ave & Jarvis Ave,271,42.015972205130815,-87.668584783452275,2458,1612,846,0.65581773799837262,0.34418226200162733
Lake Park Ave & 53rd St,353,41.79951793704226,-87.5864549044585,4588,2124,2464,0.46294681778552749,0.53705318221447251
Halsted St & Roosevelt Rd,298,41.867322261956353,-87.6486200993654,3199,2380,819,0.74398249452954046,0.25601750547045954
Kildare Ave & Montrose Ave,341,41.961082248046885,-87.7356915871094,643,333,310,0.51788491446345253,0.48211508553654742
Mcclurg Ct & Erie St,418,41.894498343433987,-87.617930678506028,14962,10317,4645,0.68954685202513033,0.31045314797486967
Wabash Ave & 87th St,618,41.736631031872506,-87.6226268867862,227,78,149,0.34361233480176212,0.65638766519823788
May St & Cullerton St,416,41.855139637097494,-87.65412442557826,1794,1102,692,0.61426978818283162,0.38573021181716832
Halsted St & Dickens Ave,294,41.919935207239249,-87.6488277420582,12116,8014,4102,0.66143941895014857,0.33856058104985143
Pulaski Rd & Lake St,491,41.885404866666661,-87.72646652072072,167,79,88,0.47305389221556887,0.52694610778443118
Austin Blvd & Chicago Ave,37,41.89489174232456,-87.774624462993415,284,79,205,0.27816901408450706,0.721830985915493
Seeley Ave & Roscoe St,527,41.943398779993572,-87.679611658151629,3981,2383,1598,0.59859331826174333,0.40140668173825672
Larrabee St & North Ave,371,41.91019871551994,-87.643501649248819,4853,3151,1702,0.64928909952606639,0.35071090047393366
Noble St & Milwaukee Ave,460,41.900681451883273,-87.662593003664767,7353,4943,2410,0.67224262205902352,0.32775737794097648
Stony Island Ave & South Chicago Ave,593,41.751170995495492,-87.585342588588574,165,80,85,0.48484848484848486,0.51515151515151514
Halsted St & Polk St,297,41.8718265814832,-87.646634792366314,5227,4432,795,0.84790510809259612,0.15209489190740386
Wilton Ave & Belmont Ave,665,41.940175854090064,-87.653027468528919,17688,10832,6856,0.61239258254183626,0.38760741745816374
Morgan St & Pershing Rd,453,41.82361310596027,-87.650923816777038,130,81,49,0.62307692307692308,0.37692307692307692
Racine Ave & Randolph St,502,41.884083431966843,-87.6568739891457,3310,2130,1180,0.64350453172205435,0.35649546827794559
California Ave & Division St,78,41.903021312403361,-87.697482551765432,3879,2642,1237,0.68110337715906166,0.31889662284093839
Kedzie Ave & Roosevelt Rd,335,41.866498745608581,-87.706494318542653,249,83,166,0.33333333333333331,0.66666666666666663
Western Blvd & 48th Pl,664,41.805677765315963,-87.683375525808,294,83,211,0.282312925170068,0.717687074829932
Franklin St & Illinois St,261,41.891017966608842,-87.635478050169851,11221,7763,3458,0.69182782283218969,0.30817217716781037
Yates Blvd & 75th St,682,41.758769400670325,-87.566435640463126,256,84,172,0.328125,0.671875
Kedzie Ave & Palmer Ct,334,41.921514240273588,-87.707306661818549,4116,2644,1472,0.64237123420796893,0.35762876579203112
State St & 79th St,574,41.75079585264227,-87.624422708333327,253,85,168,0.33596837944664032,0.66403162055335974
Sacramento Blvd & Franklin Blvd,519,41.890482660350109,-87.702611257959191,449,341,108,0.75946547884187088,0.24053452115812918
Sheffield Ave & Waveland Ave,531,41.949375897589277,-87.654514871463533,13321,7509,5812,0.56369641918774871,0.43630358081225135
Vernon Ave & 75th St,610,41.758372667109924,-87.614131308953915,176,86,90,0.48863636363636365,0.51136363636363635
Stony Island Ave & 67th St,588,41.773533534467369,-87.585325458909821,552,86,466,0.15579710144927536,0.84420289855072461
Keystone Ave & Fullerton Ave,337,41.924581550451805,-87.727852843289853,902,342,560,0.37915742793791574,0.62084257206208426
Sheffield Ave & Webster Ave,532,41.921551814979424,-87.6538089897972,11773,7254,4519,0.6161556102947422,0.3838443897052578
Halsted St & 18th St,279,41.857504309825941,-87.646262568199148,2384,1623,761,0.68078859060402686,0.31921140939597314
Blue Island Ave & 18th St,52,41.857560762022317,-87.661525535253233,4326,2904,1422,0.67128987517337035,0.3287101248266297
Franklin St & Monroe St,264,41.880292330415685,-87.635221104824566,11693,8536,3157,0.73000940733772346,0.2699905926622766
Fairbanks St & Superior St,251,41.895733956170396,-87.620118229303657,6680,4953,1727,0.7414670658682635,0.2585329341317365
Michigan Ave & Oak St,430,41.900972525900919,-87.623779880642118,21091,8025,13066,0.3804940495946138,0.61950595040538614
Clark St & Schiller St,148,41.90799306000806,-87.631506046365573,17806,11865,5941,0.66634842188026511,0.33365157811973495
Eggleston Ave & 69th St,231,41.768898470260218,-87.635874916976448,128,90,38,0.703125,0.296875
Sedgwick St & Schiller St,524,41.907616635601165,-87.638557839752607,3632,2138,1494,0.58865638766519823,0.41134361233480177
Sheffield Ave & Wrightwood Ave,535,41.928705960230296,-87.653823803824864,11667,7002,4665,0.60015428130624837,0.39984571869375163
Woodlawn Ave & 55th St,679,41.795282968736139,-87.596485100897041,3721,2395,1326,0.64364418167159365,0.35635581832840635
Michigan Ave & Lake St,428,41.886012968280731,-87.624148867862871,20263,9307,10956,0.45931007254601985,0.54068992745398015
Millard Ave & 26th St,435,41.844572703596818,-87.715937738926172,371,92,279,0.24797843665768193,0.75202156334231807
Aberdeen St & Randolph St,6,41.884114663376465,-87.654270784691519,6031,3932,2099,0.65196484828386669,0.34803515171613331
Marine Dr & Ainslie St,410,41.97159014006732,-87.6501579479734,8698,4700,3998,0.54035410439181419,0.45964589560818581
Perry Ave & 69th St,479,41.769293837314521,-87.628199808159,156,93,63,0.59615384615384615,0.40384615384615385
Clark St & Wrightwood Ave,153,41.92953707614739,-87.643119534105892,16788,10845,5943,0.64599714081486781,0.35400285918513225
Dearborn St & Erie St,208,41.89400402555146,-87.629318830077949,23559,15453,8106,0.65592767095377558,0.34407232904622437
Halsted St & 63rd St,287,41.779388478479142,-87.64461964709497,266,94,172,0.35338345864661652,0.64661654135338342
Rockwell St & Eastwood Ave,515,41.965878787662263,-87.69362535124462,2295,1630,665,0.710239651416122,0.289760348583878
Canal St & Jackson Blvd,96,41.877235076289423,-87.639388254422883,3490,2654,836,0.760458452722063,0.23954154727793697
Michigan Ave & Jackson Blvd,427,41.877859787565754,-87.624084761930348,7965,3166,4799,0.397489014438167,0.602510985561833
Wood St & Augusta Blvd,674,41.899187635321731,-87.672192008760348,5004,3678,1326,0.73501199040767384,0.26498800959232616
Kedzie Ave & Harrison St,330,41.873603301771119,-87.704877739983786,186,95,91,0.510752688172043,0.489247311827957
Union Ave & Root St,605,41.81912234747567,-87.64328187150241,534,352,182,0.65917602996254676,0.34082397003745318
Orleans St & Chestnut St (Next Apts),469,41.898189165626619,-87.63752187497785,7556,4960,2596,0.65643197458973,0.34356802541027
Ashland Ave & Division St,28,41.903456521253524,-87.667747528336363,16473,10848,5625,0.65853214350755784,0.34146785649244216
Ashland Ave & Archer Ave,23,41.839195185041589,-87.665610038106891,674,353,321,0.52373887240356087,0.47626112759643918
Wood St & 35th St,673,41.830108088996461,-87.670302204051552,715,354,361,0.49510489510489508,0.50489510489510492
Indiana Ave & 31st St,316,41.838834226604867,-87.621862618098064,2816,1890,926,0.67116477272727271,0.32883522727272729
Sawyer Ave & Irving Park Rd,521,41.953584130227284,-87.709289497584138,1189,611,578,0.5138772077375946,0.4861227922624054
California Ave & Altgeld St,75,41.926684965026034,-87.697683336059541,3280,2147,1133,0.65457317073170729,0.34542682926829266
Greenview Ave & Diversey Pkwy,269,41.932594557257282,-87.66594250420502,4274,2659,1615,0.62213383247543286,0.37786616752456714
Bosworth Ave & Howard St,53,42.019526534667968,-87.669566748046861,539,356,183,0.660482374768089,0.33951762523191092
Ashland Ave & Wrightwood Ave,36,41.928822594782261,-87.668497207899335,4882,2916,1966,0.5972961900860303,0.4027038099139697
Kedzie Ave & 24th St,326,41.848195354709809,-87.705411050096174,243,101,142,0.41563786008230452,0.58436213991769548
Ogden Ave & Roosevelt Rd,467,41.866504801482492,-87.684677578198915,1865,1381,484,0.74048257372654158,0.25951742627345842
Larrabee St & Oak St,372,41.900215143415984,-87.64298451605984,5669,4197,1472,0.74034221203034045,0.25965778796965955
Hoyne Ave & 47th St,308,41.808227233521656,-87.677192888888911,236,102,134,0.43220338983050849,0.56779661016949157
Rush St & Cedar St,516,41.902312640092141,-87.6277154414517,14445,8038,6407,0.5564555209415023,0.44354447905849775
Bissell St & Armitage Ave,50,41.918433163874674,-87.652214174375715,14740,9318,5422,0.632157394843962,0.367842605156038
Austin Blvd & Madison St,39,41.88028506860158,-87.774469120492526,377,103,274,0.27320954907161804,0.726790450928382
Rainbow Beach,505,41.757884385208207,-87.549404549001622,393,103,290,0.26208651399491095,0.7379134860050891
63rd St Beach,2,41.781052497804289,-87.576128091870586,2395,871,1524,0.3636743215031315,0.6363256784968685
Mlk Jr Dr & 63rd St,444,41.780086037911147,-87.615933872497209,273,104,169,0.38095238095238093,0.61904761904761907
Leavitt St & Division St,386,41.902996974999994,-87.683804789387437,2212,1640,572,0.74141048824593125,0.25858951175406869
Western Ave & Walton St,662,41.898414943967204,-87.686588183093548,5875,3944,1931,0.67131914893617017,0.32868085106382977
Central Park Ave & Elbridge Ave,109,41.935328932767149,-87.716873606299728,1669,873,796,0.52306770521270218,0.47693229478729776
Damen Ave & Clybourn Ave,187,41.931917874937568,-87.677855653346668,3754,2665,1089,0.70990942994139583,0.29009057005860417
Larrabee St & Menomonee St,370,41.914686876649967,-87.6433162690032,4423,3178,1245,0.71851684377119607,0.281483156228804
Broadway & Sheridan Rd,62,41.952819568100274,-87.64999356008299,9692,6250,3442,0.6448617416425918,0.3551382583574082
Clarendon Ave & Leland Ave,127,41.96796891786051,-87.6499985191987,5945,3691,2254,0.62085786375105134,0.37914213624894871
Millennium Park,436,41.881037019590352,-87.624087417208727,23669,5483,18186,0.23165321728843635,0.76834678271156365
Stony Island Ave & 82nd St,591,41.746583587227406,-87.5859920007788,210,108,102,0.51428571428571423,0.48571428571428571
Paulina St & Howard St,476,42.019167660303033,-87.673576253030319,1572,1132,440,0.72010178117048351,0.27989821882951654
Halsted St & 21st St,280,41.853762954985122,-87.646605679916235,1028,621,407,0.60408560311284043,0.39591439688715951
Field Museum,255,41.8653199868347,-87.617887913759546,3333,1133,2200,0.33993399339933994,0.66006600660066006
Claremont Ave & Hirsch St,124,41.907792724859632,-87.685870953590253,2002,1389,613,0.69380619380619379,0.30619380619380621
California Ave & Montrose Ave,83,41.9610750363283,-87.695420772770916,3571,2157,1414,0.60403248389806774,0.3959675161019322
Woodlawn Ave & Lake Park Ave,681,41.814106789039926,-87.597011428458416,1842,878,964,0.4766558089033659,0.5233441910966341
Leavitt St & Belmont Ave,384,41.939357923082419,-87.683267970405325,2166,1390,776,0.641735918744229,0.358264081255771
Elizabeth (May) St & Fulton St,233,41.886608904775443,-87.658072300835116,3795,2670,1125,0.70355731225296447,0.29644268774703558
Clark St & 9th St (Amli),128,41.870818148481511,-87.631217176534363,5073,2926,2147,0.57677902621722843,0.42322097378277151
Michigan Ave & Madison St,429,41.882122293440815,-87.625139407622171,8100,4462,3638,0.55086419753086424,0.44913580246913581
Halsted St & Wrightwood Ave,301,41.929137134139715,-87.649088902032,11910,7534,4376,0.63257766582703612,0.36742233417296388
Pulaski Rd & Eddy St,490,41.94627445112701,-87.731023574989152,762,367,395,0.48162729658792652,0.51837270341207353
Clinton St & 18th St,155,41.857958481068707,-87.640826809937153,2309,1647,662,0.71329579904720664,0.28670420095279342
Daley Center Plaza,182,41.884215194458193,-87.629631319287384,14083,9840,4243,0.69871476247958531,0.30128523752041469
Albany Ave & Montrose Ave,12,41.9610190640882,-87.705848960902458,1735,1137,598,0.65533141210374635,0.3446685878962536
Orleans St & Merchandise Mart Plaza,472,41.888200838290416,-87.636427859839159,10602,7794,2808,0.735144312393888,0.26485568760611206
St. Louis Ave & Balmoral Ave,565,41.980392530515772,-87.716110140316857,947,371,576,0.3917634635691658,0.6082365364308342
Desplaines St & Randolph St,214,41.884609046061506,-87.644564848583073,8459,5491,2968,0.64913110296725385,0.35086889703274621
Lakeview Ave & Fullerton Pkwy,363,41.925865156029339,-87.638978923144393,18506,10355,8151,0.55954825462012325,0.4404517453798768
Stony Island Ave & 64th St,587,41.778892603725488,-87.586606385294132,425,116,309,0.27294117647058824,0.72705882352941176
Prairie Ave & 43rd St,484,41.816673162476306,-87.619410652366284,1038,372,666,0.3583815028901734,0.64161849710982655
Eberhart Ave & 61st St,228,41.784135992227249,-87.613297657599432,456,117,339,0.25657894736842107,0.743421052631579
Kostner Ave & Adams St,348,41.877915771996612,-87.735787728003388,175,117,58,0.66857142857142859,0.33142857142857141
Dodge Ave & Mulford St,217,42.023497016386379,-87.699601665480827,743,373,370,0.50201884253028262,0.49798115746971738
Ogden Ave & Chicago Ave,464,41.896368776450835,-87.654065411980554,7787,5493,2294,0.70540644664183894,0.29459355335816106
Wood St & Milwaukee Ave,677,41.907659126555188,-87.672556338833459,10873,6773,4100,0.62291915754621541,0.37708084245378459
Cottage Grove Ave & 67th St,177,41.773718487929251,-87.6056277138889,284,118,166,0.41549295774647887,0.58450704225352113
Winthrop Ave & Lawrence Ave,669,41.968814489398817,-87.657660889866435,4180,2678,1502,0.64066985645933017,0.35933014354066983
Hermitage Ave & Polk St,304,41.871512987984282,-87.669885924885648,3819,3190,629,0.83529719821942916,0.16470280178057084
Cornell Ave & Hyde Park Blvd,170,41.802438330406247,-87.586927988832414,7063,3958,3105,0.56038510547925813,0.43961489452074187
Eckhart Park,230,41.896379441724186,-87.66098536493611,7472,4982,2490,0.66675588865096358,0.33324411134903642
Eastlake Ter & Rogers Ave,226,42.020888072780515,-87.665070938070485,2901,1911,990,0.65873836608066183,0.34126163391933817
Mlk Jr Dr & 29th St,441,41.842054794027554,-87.616989756015158,6694,4727,1967,0.70615476546160738,0.29384523453839256
Morgan St & Polk St,454,41.871748738424955,-87.651021532405466,6906,5751,1155,0.83275412684622063,0.16724587315377931
Damen Ave & Charleston St,185,41.920083468389443,-87.677873218210379,4125,2426,1699,0.58812121212121216,0.4118787878787879
Desplaines St & Kinzie St,213,41.8886954542792,-87.644429011216147,20950,14458,6492,0.69011933174224349,0.30988066825775656
Stony Island Ave & 71st St,589,41.766494409274117,-87.58647234552285,438,123,315,0.28082191780821919,0.71917808219178081
Montrose Harbor,448,41.96398024085201,-87.6381891758264,14069,8059,6010,0.57281967446158222,0.42718032553841778
Spaulding Ave & Division St,563,41.902708597381057,-87.709212629446142,1881,1148,733,0.61031366294524192,0.38968633705475808
Damen Ave & Division St,191,41.903277685074144,-87.678428146237152,7282,4988,2294,0.68497665476517444,0.31502334523482561
Green St & Madison St,267,41.881890394887506,-87.648781087296058,15034,10108,4926,0.67234268990288681,0.32765731009711319
Valli Produce - Evanston Plaza,608,42.039723850451296,-87.699416896358557,1026,638,388,0.621832358674464,0.37816764132553604
Walsh Park,628,41.914605520473977,-87.667971518125952,3833,2430,1403,0.633968171145317,0.366031828854683
Leavitt St & North Ave,388,41.910315873134707,-87.682332748557442,4637,2942,1695,0.63446193659693773,0.36553806340306233
Lincoln Ave & Belle Plaine Ave,390,41.9560078233826,-87.6802028870549,4583,3198,1385,0.69779620336024439,0.30220379663975561
Michigan Ave & 8th St,425,41.872761575486571,-87.623983339028541,13191,3966,9225,0.30065954059586081,0.69934045940413914
Central Park Ave & Ogden Ave,111,41.8540664633574,-87.715108659565985,406,127,279,0.312807881773399,0.687192118226601
California Ave & Lake St,81,41.884466980718706,-87.696276945812,657,383,274,0.58295281582952818,0.41704718417047182
Canal St & Harrison St,95,41.87427116197064,-87.639584718867937,1989,1407,582,0.7073906485671192,0.29260935143288086
Morgan St & Lake St,452,41.8854986361073,-87.652296049269765,12387,8063,4324,0.650924356179866,0.349075643820134
Stockton Dr & Wrightwood Ave,586,41.931312260664363,-87.638733542147889,15964,9343,6621,0.58525432222500628,0.41474567777499372
California Ave & 26th St,74,41.8440494648214,-87.695301234162926,171,128,43,0.74853801169590639,0.25146198830409355
Dayton St & North Ave,205,41.910585107722014,-87.64941585870973,7639,4992,2647,0.65348867652834142,0.34651132347165858
Sheffield Ave & Wellington Ave,533,41.936276871865438,-87.652672203070821,13830,9088,4742,0.65712219812002892,0.34287780187997108
Broadway & Wilson Ave,65,41.965216624738432,-87.658146933477084,7440,4737,2703,0.6366935483870968,0.3633064516129032
Ogden Ave & Race Ave,466,41.8917946810912,-87.658765756275287,7476,5249,2227,0.70211342964151957,0.29788657035848048
Kingsbury St & Erie St,344,41.893807704664212,-87.641696943357346,16221,12162,4059,0.74976881819863139,0.25023118180136861
Avers Ave & Belmont Ave,42,41.939403440680756,-87.723574831295437,1461,643,818,0.44010951403148529,0.55989048596851476
Michigan Ave & Ida B Wells Dr,426,41.876232701456566,-87.624422311367823,5127,2180,2947,0.42519992198166567,0.57480007801833433
Kingsbury St & Kinzie St,345,41.889192992430694,-87.638501411531422,21882,16260,5622,0.74307650123389091,0.25692349876610915
Washtenaw Ave & Ogden Ave,632,41.861926959388676,-87.693453148818136,909,645,264,0.70957095709570961,0.29042904290429045
Western Ave & Howard St,657,42.018899405214931,-87.690030306084111,694,390,304,0.56195965417867433,0.43804034582132567
Lincoln Ave & Addison St,389,41.94617953918447,-87.673302413013644,2592,1671,921,0.64467592592592593,0.35532407407407407
Loomis St & Jackson Blvd,403,41.877933701580318,-87.662005211980869,4297,2951,1346,0.68675820339771931,0.31324179660228069
Clark St & Chicago Ave,132,41.896750965694515,-87.630888201951478,11885,7815,4070,0.65755153554901136,0.34244846445098864
Clark St & Lunt Ave,143,42.009079096720221,-87.674205210413078,1704,1160,544,0.68075117370892024,0.31924882629107981
Sangamon St & Washington Blvd,520,41.88316209448417,-87.651088809598434,6066,3976,2090,0.65545664358720734,0.3445433564127926
Evanston Civic Center,247,42.05703527228389,-87.6865651622099,957,393,564,0.41065830721003133,0.58934169278996862
Albany Ave & Bloomingdale Ave,11,41.914013613689015,-87.705121942902124,2886,1673,1213,0.57969507969507972,0.42030492030492028
900 W Harrison St,3,41.87476760189179,-87.649804773960952,4493,3209,1284,0.71422212330291568,0.28577787669708438
Wells St & Walton St,641,41.899935692402664,-87.634425075200937,7328,4745,2583,0.64751637554585151,0.35248362445414849
Ravenswood Ave & Lawrence Ave,508,41.969090575953821,-87.67421626247004,9035,6793,2242,0.75185390149418929,0.24814609850581074
Warren Park East,629,42.004553157314241,-87.680669014470951,1171,650,521,0.5550811272416738,0.4449188727583262
Ashland Ave & Augusta Blvd,24,41.899629830177723,-87.66775062086235,5226,3722,1504,0.71220818982013012,0.28779181017986988
Lakefront Trail & Wilson Ave,362,41.965834741789244,-87.6453735335513,7557,4490,3067,0.59415111816858546,0.4058488818314146
Mcclurg Ct & Illinois St,419,41.890383788148732,-87.61753554478895,15285,8074,7211,0.52823029113509978,0.47176970886490022
Western Ave & Winnebago Ave,663,41.915520596748891,-87.687016837602215,6806,4747,2059,0.69747281810167494,0.302527181898325
Kosciuszko Park,347,41.930586193573447,-87.723755499127179,2136,1164,972,0.5449438202247191,0.4550561797752809
Sheridan Rd & Columbia Ave,537,42.004573081966782,-87.661417375734331,3189,1933,1256,0.60614612731263717,0.39385387268736283
Lake Shore Dr & North Blvd,358,41.911714522235748,-87.626805316174028,25897,13197,12700,0.50959570606633975,0.49040429393366025
Halsted St & Archer Ave,292,41.847202758689349,-87.646802322230272,1319,910,409,0.68991660348749051,0.31008339651250949
Fairbanks Ct & Grand Ave,250,41.891848930256572,-87.62059543859462,19076,10638,8438,0.55766408052002514,0.44233591947997486
Francisco Ave & Foster Ave,258,41.975622421834281,-87.701395339241415,2065,1167,898,0.565133171912833,0.43486682808716709
Western Ave & Monroe St,660,41.879792686263706,-87.686093736615135,1872,1167,705,0.6233974358974359,0.3766025641025641
California Ave & Byron St,76,41.952162420908486,-87.698059423583345,2098,1167,931,0.55624404194470922,0.44375595805529078
Central St & Girard Ave,113,42.064306831327428,-87.686158595693229,1363,912,451,0.669112252384446,0.33088774761555395
Milwaukee Ave & Rockwell St,439,41.920211877739447,-87.6928034500906,3541,2192,1349,0.61903417113809656,0.38096582886190344
Wells St & Elm St,636,41.903201331631557,-87.634344684937574,21828,13456,8372,0.61645592816565875,0.38354407183434119
Western Ave & Roscoe St,661,41.9430267770692,-87.687287365617138,2440,1681,759,0.68893442622950818,0.31106557377049182
Desplaines St & Jackson Blvd,212,41.878284887875473,-87.643918024683671,10888,8338,2550,0.76579720793534167,0.23420279206465833
Princeton Ave & Garfield Blvd,487,41.794985494949493,-87.633105806595367,280,147,133,0.525,0.475
Racine Ave & 15th St,493,41.861272782775451,-87.656610753544868,1473,915,558,0.62118126272912422,0.37881873727087578
Indiana Ave & Roosevelt Rd,318,41.867897209738977,-87.6230316923204,23918,11155,12763,0.46638514925997154,0.53361485074002846
Harper Ave & 59th St,302,41.787942357329769,-87.588319678180625,2288,1684,604,0.736013986013986,0.263986013986014
Campbell Ave & Montrose Ave,92,41.961524208201631,-87.691167816612491,2516,1940,576,0.77106518282988867,0.2289348171701113
Clarendon Ave & Junior Ter,126,41.961001193096088,-87.6495923851425,9735,6036,3699,0.62003081664098614,0.37996918335901386
Greenwood Ave & 47th St,272,41.809828165079352,-87.599376732055759,2140,917,1223,0.42850467289719624,0.57149532710280371
Budlong Woods Library,67,41.98367426126439,-87.696415852768823,911,406,505,0.44566410537870471,0.55433589462129529
Orleans St & Elm St,470,41.902910536182439,-87.637708142277489,3754,2454,1300,0.65370271710175809,0.34629728289824185
Sheffield Ave & Willow St,534,41.913697109565717,-87.652860896727532,10051,7575,2476,0.75365635260173114,0.24634364739826883
Damen Ave & Cortland St,188,41.915984288364967,-87.677318811721335,8497,5272,3225,0.62045427798046371,0.37954572201953629
Stony Island Ave & 75th St,590,41.758676204767475,-87.586918097961274,307,153,154,0.498371335504886,0.501628664495114
Central Ave & Madison St,106,41.880121308164519,-87.763203919275639,263,154,109,0.5855513307984791,0.4144486692015209
California Ave & North Ave,84,41.910431463096337,-87.697181474400935,3736,2202,1534,0.58940042826552463,0.41059957173447537
Indiana Ave & 26th St,315,41.84569107923754,-87.622493515200219,3608,2714,894,0.75221729490022171,0.24778270509977826
Wabash Ave & Wacker Pl,624,41.886892531176294,-87.626036999290989,11843,4506,7337,0.38047791944608628,0.61952208055391367
Albany Ave & 26th St,10,41.844482189581122,-87.702013297253487,326,156,170,0.4785276073619632,0.5214723926380368
Mlk Jr Dr & 56th St,443,41.793458675512113,-87.615830482313442,413,157,256,0.38014527845036322,0.61985472154963683
Milwaukee Ave & Cuyler Ave,437,41.954478641607004,-87.7495947947494,793,413,380,0.52080706179066838,0.47919293820933168
Sheridan Rd & Lawrence Ave,540,41.969504684400079,-87.654691955623875,4872,2973,1899,0.61022167487684731,0.38977832512315269
Pine Grove Ave & Waveland Ave,483,41.949518843385235,-87.646349571026661,16780,10397,6383,0.61960667461263408,0.38039332538736592
Museum Of Science And Industry,456,41.791767614974553,-87.583952241576711,3303,1438,1865,0.4353617923100212,0.56463820768997885
Southport Ave & Roscoe St,558,41.943724860042821,-87.664008355681,13587,8606,4981,0.633399573121366,0.366600426878634
Cornell Dr & Hayes Dr,171,41.780594342105267,-87.584858398520808,482,159,323,0.32987551867219916,0.67012448132780078
Wentworth Ave & 35th St,645,41.830787184556691,-87.632505617600629,650,415,235,0.63846153846153841,0.36153846153846153
Kedzie Ave & Leland Ave,332,41.966686426005133,-87.708061796606358,1363,671,692,0.49229640498899485,0.50770359501100515
Oakley Ave & Irving Park Rd,462,41.954324942124721,-87.6860804796481,1946,1183,763,0.6079136690647482,0.3920863309352518
Kimball Ave & Belmont Ave,342,41.939392269283751,-87.711561437819768,1647,929,718,0.5640558591378263,0.43594414086217365
Damen Ave & Foster Ave,192,41.9756010142682,-87.67946465624982,3714,2465,1249,0.66370490037695207,0.33629509962304793
Larrabee St & Webster Ave,373,41.9218169258557,-87.644124878722621,19764,12193,7571,0.616929771301356,0.383070228698644
Western Ave & Division St,654,41.902896440779458,-87.6872939329688,4172,2722,1450,0.65244487056567591,0.34755512943432404
Clinton St & Washington Blvd,162,41.88339640869539,-87.641190565745646,13086,11426,1660,0.87314687452239037,0.12685312547760966
Sheridan Rd & Noyes St (Nu),543,42.058223781255556,-87.677424638241718,2718,1699,1019,0.6250919793966152,0.37490802060338485
Clark St & Grace St,137,41.950791655716728,-87.659177427557708,10579,6051,4528,0.57198222894413464,0.42801777105586541
Campbell Ave & Fullerton Ave,91,41.9246294222968,-87.689299743009741,3211,1956,1255,0.60915602616007469,0.39084397383992525
Clifton Ave & Armitage Ave,154,41.918209905711912,-87.65693099789496,7834,5284,2550,0.67449578759254536,0.3255042124074547
Morgan St & 31st St,451,41.837798579910981,-87.651137146552458,1909,1189,720,0.62283918281822948,0.37716081718177058
Broadway & Thorndale Ave,63,41.989723833954628,-87.66012366529128,5300,2981,2319,0.5624528301886792,0.43754716981132075
Rhodes Ave & 32nd St,509,41.836284405841049,-87.613512985290981,3093,1446,1647,0.46750727449078566,0.53249272550921434
Monticello Ave & Irving Park Rd,447,41.95400363387116,-87.719104481906612,1169,679,490,0.58083832335329344,0.41916167664670656
Bernard St & Elston Ave,48,41.949897843269454,-87.71390235119469,672,424,248,0.63095238095238093,0.36904761904761907
Damen Ave & Leland Ave,194,41.96709351850474,-87.6790141512638,4668,3496,1172,0.74892887746358183,0.25107112253641817
Kedzie Ave & Milwaukee Ave,333,41.929576232244791,-87.707870112443715,8919,5032,3887,0.56418881040475388,0.43581118959524612
Ashland Ave & Mcdowell Ave,33,41.808883108197712,-87.664516353526224,278,169,109,0.6079136690647482,0.3920863309352518
Kedzie Ave & 21st St,325,41.853525498921982,-87.705078055023677,327,169,158,0.51681957186544347,0.48318042813455658
Clinton St & Jackson Blvd,156,41.87809544572184,-87.6398376474682,6446,5289,1157,0.82050884269314306,0.17949115730685697
Damen Ave & Melrose Ave,196,41.940594601489579,-87.678508976409645,2573,1706,867,0.66303925378935091,0.33696074621064903
Racine Ave & 13th St,492,41.865062376354359,-87.6569788897387,1034,683,351,0.660541586073501,0.33945841392649906
Sheridan Rd & Buena Ave,536,41.958492086424144,-87.654976455516348,7091,4523,2568,0.63785079678465662,0.36214920321534338
Field Blvd & South Water St,254,41.886301692795605,-87.6174919511683,8972,5035,3937,0.56119037004012484,0.43880962995987516
Burling St (Halsted) & Diversey Pkwy,69,41.933126950959689,-87.647769932764064,8227,5547,2680,0.67424334508326245,0.32575665491673755
Elmwood Ave & Austin St,242,42.025805081262938,-87.6841022943064,759,428,331,0.56389986824769434,0.43610013175230566
Damen Ave & Madison St,195,41.881383338432315,-87.674918627674472,1646,940,706,0.57108140947752128,0.42891859052247872
State St & Kinzie St,577,41.889192281844579,-87.627790994092152,14328,8108,6220,0.56588498045784474,0.4341150195421552
Wells St & Hubbard St,638,41.889920111312826,-87.63428083339889,16440,10668,5772,0.64890510948905111,0.35109489051094889
Jeffery Blvd & 67th St,320,41.773516308897513,-87.577168810377529,853,173,680,0.20281359906213364,0.7971864009378663
Avondale Ave & Irving Park Rd,43,41.953381144111852,-87.731969434162465,1138,685,453,0.60193321616871709,0.39806678383128297
Damen Ave & Wellington Ave,202,41.935880706620694,-87.678408609118321,3819,2477,1342,0.648599109714585,0.35140089028541505
Christiana Ave & Lawrence Ave,119,41.968340328267878,-87.7117969031686,1269,686,583,0.54058313632781718,0.45941686367218282
Chicago Ave & Sheridan Rd,117,42.050489623056116,-87.677815347317008,2561,942,1619,0.36782506833268253,0.63217493166731742
Clark St & Lincoln Ave,142,41.915695953277307,-87.634604453296532,21523,11950,9573,0.55521999721228454,0.44478000278771546
Clark St & Elm St,135,41.902963895113174,-87.6313123050294,31012,19886,11126,0.641235650715852,0.35876434928414808
Racine Ave & Congress Pkwy,499,41.874626057596792,-87.657019488175848,3038,2479,559,0.81599736668861089,0.18400263331138908
Franklin St & Jackson Blvd,262,41.877723601624325,-87.635299781201851,11988,7855,4133,0.6552385719052386,0.3447614280947614
Austin Blvd & Lake St,38,41.887913879822889,-87.774420143421878,472,176,296,0.3728813559322034,0.6271186440677966
Wolcott Ave & Fargo Ave,671,42.01698049795251,-87.677720696764936,395,176,219,0.44556962025316454,0.5544303797468354
Ashland Ave & Grand Ave,31,41.891080183652647,-87.666614827455817,4109,2480,1629,0.60355317595522029,0.39644682404477977
Halsted St & 37th St,282,41.827082088118338,-87.645710683196612,661,433,228,0.65506807866868377,0.34493192133131617
Ogden Ave & Congress Pkwy,465,41.875005734966216,-87.673268835360375,1529,1201,328,0.78548070634401568,0.21451929365598429
Aberdeen St & Monroe St,5,41.880414761538454,-87.6555167993469,6727,5041,1686,0.74936821763044448,0.25063178236955552
Drake Ave & Addison St,220,41.947319758385731,-87.717593624213848,659,435,224,0.66009104704097121,0.33990895295902884
Jeffery Blvd & 71st St,321,41.766676679017749,-87.576457287846964,658,180,478,0.2735562310030395,0.7264437689969605
California Ave & 23rd Pl,73,41.849107868503644,-87.695129732439028,974,692,282,0.71047227926078027,0.28952772073921973
Troy St & Elston Ave,603,41.945224520374119,-87.706643326779258,1845,1204,641,0.65257452574525743,0.34742547425474257
Southport Ave & Waveland Ave,559,41.948155449485348,-87.6639356508366,12834,8116,4718,0.63238273336450057,0.36761726663549943
Federal St & Polk St,253,41.872094063267106,-87.629537297118731,13345,8628,4717,0.64653428250281009,0.35346571749718997
Greenview Ave & Fullerton Ave,270,41.925337814158588,-87.665794573348791,7776,5045,2731,0.64879115226337447,0.35120884773662553
Clark St & Bryn Mawr Ave,131,41.983582662984112,-87.669158670983165,5293,3766,1527,0.71150576232760254,0.28849423767239751
Michigan Ave & 18th St,423,41.85781760949515,-87.624559853115571,9358,5814,3544,0.62128659970079081,0.37871340029920925
Wilton Ave & Diversey Pkwy,666,41.932413367941209,-87.652708853178183,12284,7862,4422,0.640019537609899,0.35998046239010095
Lincoln Ave & Fullerton Ave,393,41.925905392979018,-87.649268263047432,16032,10166,5866,0.63410678642714569,0.36589321357285431
Cherry Ave & Blackhawk St,115,41.907212378318135,-87.655614032624115,813,439,374,0.53997539975399755,0.46002460024600245
Lincoln Park Conservatory,398,41.923935051408144,-87.635826510265332,11112,5047,6065,0.45419366450683946,0.5458063354931606
Canal St & Adams St,94,41.8793015757937,-87.639903454175084,14613,12215,2398,0.83589954150414014,0.16410045849585986
Ashland Ave & Pershing Rd,34,41.8234743219697,-87.665584750582752,281,184,97,0.65480427046263345,0.34519572953736655
Streeter Dr & Grand Ave,594,41.892281000927746,-87.61204519546294,34470,8888,25582,0.25784740353930957,0.74215259646069043
Broadway & Belmont Ave,57,41.940105804714456,-87.645460758278986,12706,7865,4841,0.61899889815835041,0.38100110184164959
Wells St & Evergreen Ave,637,41.906716623040992,-87.634852674355287,18547,10425,8122,0.56208551248180294,0.437914487518197
Normal Ave & Archer Ave,461,41.8495395491891,-87.640597463677793,1178,954,224,0.80984719864176569,0.19015280135823429
Sedgwick St & North Ave,523,41.91138556655104,-87.63868272889664,11112,7098,4014,0.63876889848812091,0.36123110151187904
Damen Ave & Cullerton St,190,41.855016181211063,-87.67577393652283,2473,1467,1006,0.59320663162151233,0.40679336837848767
Western Ave & Granville Ave,656,41.994173615899662,-87.68941793220084,1283,700,583,0.54559625876851126,0.45440374123148869
Chicago Ave & Dempster St,116,42.041697120266008,-87.680685763976555,2142,1212,930,0.56582633053221287,0.43417366946778713
Troy St & North Ave,604,41.909784609795736,-87.705291802024249,3192,1725,1467,0.54041353383458646,0.45958646616541354
Winchester Ave & Elston Ave,668,41.924085633070945,-87.676463163211608,2645,1726,919,0.65255198487712662,0.34744801512287332
W Oakdale Ave & N Broadway,615,41.94,-87.64,408,191,217,0.46813725490196079,0.53186274509803921
Lincoln Ave & Roscoe St,394,41.943332875399506,-87.670958464706075,8286,5823,2463,0.70275162925416368,0.29724837074583638
Lasalle St & Jackson Blvd,377,41.878199861299727,-87.631898389065384,9380,7359,2021,0.78454157782515987,0.2154584221748401
Wabash Ave & 9th St,619,41.870768345025986,-87.625730001175413,14586,7871,6715,0.53962703962703962,0.46037296037296038
Mies Van Der Rohe Way & Chicago Ave,434,41.89693244111379,-87.621743421578529,13306,9408,3898,0.70704945137531938,0.29295054862468062
Winchester (Ravenswood) Ave & Balmoral Ave,667,41.97977105221166,-87.677516688372634,1362,961,401,0.70558002936857567,0.29441997063142439
Damen Ave & Thomas St (Augusta Blvd),200,41.901315495041374,-87.677414032136809,6379,4545,1834,0.7124941213356325,0.28750587866436744
Emerald Ave & 31st St,245,41.838200253772804,-87.645110867571134,3278,2498,780,0.7620500305064063,0.23794996949359365
Broadway & Ridge Ave,61,41.984029433052427,-87.660271679291711,6086,3779,2307,0.62093328951692406,0.37906671048307589
State St & Randolph St,580,41.884720130363746,-87.62774040812613,13754,7363,6391,0.53533517522175367,0.46466482477824633
Dearborn Pkwy & Delaware Pl,206,41.898965249038348,-87.629908949902514,18716,11971,6745,0.63961316520624067,0.36038683479375933
Clark St & Columbia Ave,133,42.00445795647839,-87.672397757824484,1457,964,493,0.66163349347975287,0.33836650652024708
Western Ave & Leland Ave,658,41.966497199553622,-87.688410458145924,4894,3524,1370,0.720065386187168,0.279934613812832
Damen Ave & Pershing Rd,197,41.823193595315026,-87.676598934302646,604,198,406,0.32781456953642385,0.67218543046357615
Western Ave & 21st St,650,41.854104478175941,-87.685823208026378,1392,966,426,0.69396551724137934,0.30603448275862066
Central St Metra,114,42.06362333387154,-87.698713388410482,1346,967,379,0.71842496285289748,0.28157503714710252
St. Clair St & Erie St,564,41.894421578032492,-87.622700546409916,21188,15559,5629,0.73433075325656028,0.26566924674343967
St. Louis Ave & Fullerton Ave,566,41.9248268340822,-87.714486963943841,374,200,174,0.53475935828877008,0.46524064171123
Blackstone Ave & Hyde Park Blvd,51,41.80257850222371,-87.590375766255036,4550,2504,2046,0.55032967032967028,0.44967032967032966
University Ave & 57th St,606,41.791502922877,-87.599880682068815,7228,5576,1652,0.77144438295517437,0.22855561704482569
Clinton St & Lake St,157,41.885609481068037,-87.641811396057719,12421,9416,3005,0.758071008775461,0.24192899122453909
Wells St & Huron St,639,41.894729192468539,-87.634368240066678,22348,14538,7810,0.65052801145516381,0.34947198854483624
Lake Park Ave & 56th St,354,41.793239520458144,-87.5877886015798,5190,3276,1914,0.63121387283237,0.36878612716763004
Pine Grove Ave & Irving Park Rd,482,41.954377889626123,-87.648040004384953,12956,8141,4815,0.62835751775239268,0.37164248224760726
Smith Park,548,41.892036396093559,-87.689349235549827,1139,718,421,0.630377524143986,0.36962247585601404
Damen Ave & Grand Ave,193,41.891288205340125,-87.676863310962631,3528,2510,1018,0.71145124716553287,0.28854875283446713
Throop (Loomis) St & Taylor St,598,41.868967036536993,-87.6591239273313,3837,2766,1071,0.72087568412822522,0.27912431587177483
Racine Ave & Fullerton Ave,500,41.9255775656891,-87.658408528996418,8314,5838,2476,0.702189078662497,0.29781092133750303
Clark St & Armitage Ave,129,41.918302225360172,-87.636291034726355,23080,13774,9306,0.59679376083188906,0.40320623916811094
Sheridan Rd & Greenleaf Ave,538,42.01058517922214,-87.66240907829399,2815,1487,1328,0.5282415630550622,0.47175843694493785
Calumet Ave & 18th St,85,41.85761822624508,-87.619413941391215,7008,4303,2705,0.61401255707762559,0.38598744292237441
Western Ave & 24th St,651,41.848489971397839,-87.685091664408574,746,464,282,0.62198391420911525,0.37801608579088469
California Ave & Fletcher St,79,41.938414792436816,-87.697988454736262,2231,1232,999,0.55221873599282834,0.44778126400717166
Logan Blvd & Elston Ave,400,41.929468061089096,-87.68416439768842,4544,3024,1520,0.66549295774647887,0.33450704225352113
Rush St & Hubbard St,517,41.890181573107085,-87.626202142405944,7417,4816,2601,0.64931913172441691,0.35068086827558315
Halsted St & North Branch St,296,41.89937154220079,-87.648483634966723,1477,977,500,0.66147596479350035,0.33852403520649965
Dearborn St & Van Buren St,210,41.876282082990905,-87.629195539017431,4642,2769,1873,0.59651012494614386,0.40348987505385608
Broadway & Granville Ave,60,41.994749858754169,-87.6602699490776,7534,4305,3229,0.571409609769047,0.428590390230953
Lake Shore Dr & Ohio St,359,41.892570634148882,-87.614508956705066,13415,6609,6806,0.49265747297800971,0.50734252702199034
Franklin St & Lake St,263,41.8858371227217,-87.635493105668488,10827,7377,3450,0.68135217511776114,0.31864782488223886
Campbell Ave & North Ave,93,41.910524023263605,-87.689555729537688,4412,2770,1642,0.62783318223028106,0.37216681776971894
Ellis Ave & 58th St,239,41.788732613733742,-87.601316740260245,4096,3282,814,0.80126953125,0.19873046875
Clark St & Montrose Ave,144,41.961588666451917,-87.66605028497797,4711,3282,1429,0.69666737423052427,0.30333262576947567
Cottage Grove Ave & 63rd St,176,41.780610845428754,-87.606081394224972,515,211,304,0.40970873786407769,0.59029126213592231
Ashland Ave & Blackhawk St,26,41.907073152694032,-87.667255408251549,8280,5588,2692,0.67487922705314007,0.32512077294685993
Michigan Ave & Washington St,432,41.883986929385067,-87.624667109711808,18233,8148,10085,0.44688202709373115,0.55311797290626885
Sheridan Rd & Loyola Ave,541,42.001042270266623,-87.661211414434689,4552,2261,2291,0.49670474516695956,0.50329525483304038
Princeton Ave & 47th St,486,41.809314814351772,-87.633440890154318,349,215,134,0.61604584527220629,0.38395415472779371
Wood St & Taylor St,678,41.869209117516291,-87.672025143832627,5443,4823,620,0.88609222855043179,0.11390777144956825
Clark St & Winnemac Ave,152,41.97332145114332,-87.668021589126013,7667,5591,2076,0.72922916394939352,0.27077083605060648
Mies Van Der Rohe Way & Chestnut St,433,41.898580912012591,-87.621965578992729,14389,8919,5470,0.619848495378414,0.38015150462158592
Ashland Ave & Chicago Ave,27,41.895976759746247,-87.667730095238113,6182,4312,1870,0.697508896797153,0.302491103202847
Paulina St & Flournoy St,475,41.872984229091315,-87.669107601501736,6446,5080,1366,0.78808563450201674,0.21191436549798326
Clark St & Leland Ave,141,41.96708866949993,-87.6674163748416,7176,5080,2096,0.70791527313266445,0.29208472686733555
Damen Ave & Pierce Ave,198,41.909396544275005,-87.677692075366465,14770,8923,5847,0.60412999322951932,0.39587000677048073
Laflin St & Cullerton St,350,41.8549091737888,-87.6635756378863,2083,1244,839,0.59721555448871821,0.40278444551128179
Stetson Ave & South Water St,583,41.886787906279132,-87.622314801501346,8934,5596,3338,0.62637116633087087,0.37362883366912919
Sedgwick St & Huron St,522,41.894675119971808,-87.638402533806641,9882,7388,2494,0.74762193887876949,0.25237806112123051
State St & Van Buren St,581,41.877180901691133,-87.627836857880325,6164,3549,2615,0.57576249188838413,0.42423750811161581
Canal St & Monroe St,98,41.881695398882876,-87.63949906308109,4980,3805,1175,0.76405622489959835,0.2359437751004016
Larrabee St & Division St,368,41.903492784488328,-87.6433597669538,9293,6365,2928,0.684924136446788,0.3150758635532121
Honore St & Division St,306,41.903118888370713,-87.673918381273779,8602,5086,3516,0.59125784701232276,0.4087421529876773
Carpenter St & Huron St,102,41.894569946533181,-87.653432417864082,7344,5087,2257,0.69267429193899777,0.30732570806100218
Ada St & Washington Blvd,8,41.8828258074008,-87.661193876144637,6378,4576,1802,0.71746629037315768,0.28253370962684227
Halsted St & Maxwell St,295,41.86489112737717,-87.647078611965341,4620,3041,1579,0.65822510822510827,0.34177489177489179
South Shore Dr & 71st St,552,41.766470758180958,-87.565728937897731,2130,995,1135,0.46713615023474181,0.53286384976525825
Ashland Ave & Lake St,32,41.885917333144519,-87.667174408279408,3142,2019,1123,0.64258434118395924,0.35741565881604076
Shedd Aquarium,528,41.867214770442708,-87.61535835791976,13473,4067,9406,0.30186298522971872,0.69813701477028134
Green St & Randolph St,268,41.883674088554265,-87.648654139100017,11035,6627,4408,0.60054372451291349,0.39945627548708657
Stave St & Armitage Ave,582,41.917731245781063,-87.691394963351982,3239,2020,1219,0.62364927446742824,0.37635072553257176
Leavitt St & Armitage Ave,383,41.917800787270849,-87.6824296628117,4245,2788,1457,0.65677267373380444,0.34322732626619551
Clark St & Ida B Wells Dr,138,41.875931473039991,-87.630611093913956,4959,3812,1147,0.76870336761443836,0.23129663238556161
Lincoln Ave & Diversey Pkwy,392,41.932214727831109,-87.658614271347616,9603,6372,3231,0.66354264292408627,0.33645735707591379
Wentworth Ave & 24th St,643,41.850088848084347,-87.632134324400127,1320,741,579,0.5613636363636364,0.43863636363636366
New St & Illinois St,459,41.890809368694434,-87.618590192945376,1578,997,581,0.6318124207858048,0.3681875792141952
Paulina Ave & North Ave,473,41.910333939897704,-87.670079897935054,6913,4325,2588,0.625632865615507,0.374367134384493
Lincoln Ave & Belmont Ave,391,41.93936981337108,-87.668372900623723,7621,5093,2528,0.66828500196824558,0.33171499803175436
Archer (Damen) Ave & 37th St,13,41.8267091008958,-87.683133514026409,671,231,440,0.34426229508196721,0.65573770491803274
Clinton St & Roosevelt Rd,160,41.867117441022131,-87.641087890941037,5958,4071,1887,0.68328298086606243,0.31671701913393757
Clark St & Lake St,140,41.886010527997982,-87.630891335330645,12529,7655,4874,0.61098252055231861,0.38901747944768139
State St & Pershing Rd,579,41.8230334067854,-87.626576813546777,413,232,181,0.56174334140435833,0.43825665859564167
Cottage Grove Ave & 51st St,175,41.80302672983256,-87.606610505682383,1620,744,876,0.45925925925925926,0.54074074074074074
Lincoln Ave & Winona St,397,41.97490820710194,-87.6925311503181,2088,1256,832,0.6015325670498084,0.39846743295019155
Sheridan Rd & Irving Park Rd,539,41.954228920470761,-87.654408112100981,10620,7144,3476,0.67269303201506592,0.32730696798493408
University Library (Nu),607,42.052926610699096,-87.673421511124019,2120,1257,863,0.5929245283018868,0.4070754716981132
Clybourn Ave & Division St,163,41.904603607186537,-87.640561688627912,5606,4073,1533,0.72654298965394215,0.27345701034605779
Fairfield Ave & Roosevelt Rd,252,41.866626366377751,-87.694513177681472,437,235,202,0.53775743707093826,0.4622425629290618
Clark St & Touhy Ave,150,42.012569745709371,-87.674357739916516,755,491,264,0.6503311258278146,0.34966887417218545
Damen Ave & Coulter St,189,41.849199896054969,-87.675636391289885,741,492,249,0.66396761133603244,0.33603238866396762
Dusable Harbor,223,41.886971423663304,-87.612812842436369,11386,3820,7566,0.33549973651853154,0.66450026348146851
State St & 33rd St,570,41.834734680919844,-87.625804230579789,4858,3820,1038,0.78633182379580069,0.21366817620419926
Michigan Ave & Pearson St,431,41.897629735085744,-87.623530522126913,10088,4332,5756,0.42942109436954795,0.570578905630452
Maplewood Ave & Peterson Ave,409,41.990230515151147,-87.693371317254318,636,237,399,0.37264150943396224,0.62735849056603776
Clark St & Jarvis Ave,139,42.015946094078309,-87.674987282394142,1064,749,315,0.70394736842105265,0.29605263157894735
Spaulding Ave & Armitage Ave,562,41.91710682483027,-87.71021289575036,2548,1517,1031,0.59536891679748827,0.40463108320251179
Elston Ave & Wabansia Ave,243,41.912910899097731,-87.664176058266619,2490,1773,717,0.71204819277108433,0.28795180722891567
Broadway & Argyle St,55,41.97380120961305,-87.6596754470638,6688,4333,2355,0.64787679425837319,0.35212320574162681
Western Ave & 28th St,652,41.841513767796471,-87.685122524134584,320,238,82,0.74375,0.25625
State St & Harrison St,576,41.874060606331462,-87.627706171230784,6371,3054,3317,0.47935959817924972,0.52064040182075022
Lasalle Dr & Huron St,374,41.894870889466716,-87.6323035859335,9936,5870,4066,0.590780998389694,0.40921900161030594
Lincoln Ave & Waveland Ave,396,41.948799840890324,-87.6752803465446,4515,3055,1460,0.67663344407530457,0.32336655592469549
Wallace St & 35th St,627,41.830630743307736,-87.641298285905478,1381,1008,373,0.72990586531498913,0.27009413468501087
Paulina St & Montrose Ave,477,41.9615075357543,-87.67139901493654,2697,1777,920,0.65888023730070444,0.3411197626992955
Lake Shore Dr & Belmont Ave,355,41.940774947771196,-87.6391947899993,18099,9713,8386,0.53665948394938945,0.46334051605061055
Southport Ave & Wrightwood Ave,561,41.928780018970471,-87.663900807085284,7031,4338,2693,0.61698193713554261,0.38301806286445739
Kilbourn Ave & Irving Park Rd,339,41.95370420575933,-87.740522627574,480,243,237,0.50625,0.49375
Humboldt Blvd & Armitage Ave,313,41.917510740935164,-87.701791335764128,4393,2547,1846,0.57978602321875716,0.42021397678124289
State St & Pearson St,578,41.897442365847269,-87.6287161198927,9035,5363,3672,0.59358052019922525,0.40641947980077475
Lake Park Ave & 47th St,352,41.809478320411614,-87.591891787921739,2391,1012,1379,0.4232538686741949,0.5767461313258051
Ravenswood Ave & Irving Park Rd,507,41.954682214615566,-87.673913323539608,4237,3060,1177,0.722209110219495,0.27779088978050509
Ridge Blvd & Touhy Ave,513,42.012122869042749,-87.682908846527056,515,245,270,0.47572815533980584,0.52427184466019416
Halsted St & Roscoe St,299,41.94367764390342,-87.648955915209243,15426,9461,5965,0.61331518215998959,0.38668481784001035
Broadway & Waveland Ave,64,41.949077047149437,-87.64862899966171,15324,10485,4839,0.68422083007047774,0.31577916992952232
Halsted St & 47th Pl,283,41.808140076733785,-87.64561932529827,514,246,268,0.47859922178988329,0.52140077821011677
Lasalle St & Illinois St,376,41.890774063093531,-87.631694900226762,14413,8182,6231,0.56768195379171582,0.43231804620828418
Kedzie Ave & Chicago Ave,328,41.895472110943906,-87.7060979528407,1051,759,292,0.72216936251189345,0.27783063748810655
Ellis Ave & 55th St,238,41.794297276698295,-87.601460895794588,4892,3576,1316,0.73098937040065415,0.26901062959934585
Sheffield Ave & Fullerton Ave,529,41.92560303888073,-87.6537047875496,9991,6648,3343,0.66539885897307571,0.33460114102692423
Leavitt St & Archer Ave,382,41.828790154077005,-87.680605507382666,626,249,377,0.39776357827476039,0.60223642172523961
Morgan St & 18th St,450,41.858088780955129,-87.651083619006371,3372,2041,1331,0.6052787663107948,0.3947212336892052
Canal St & Madison St,97,41.88209739862873,-87.639791475729453,7951,6137,1814,0.77185259715759025,0.22814740284240975
Artesian Ave & Hubbard St,14,41.889500038730979,-87.688160056572571,2719,2298,421,0.845163663111438,0.15483633688856197
Lincoln Ave & Sunnyside Ave,395,41.962996794409506,-87.684776922317752,4426,3067,1359,0.692950745594216,0.307049254405784
Lasalle St & Washington St,378,41.882697452606592,-87.632528595571586,8019,5883,2136,0.7336326225215114,0.2663673774784886
Racine Ave & 35th St,495,41.830698936880488,-87.655986434822466,830,508,322,0.61204819277108435,0.38795180722891565
Dearborn St & Adams St,207,41.879348403244258,-87.629786608088764,6431,4860,1571,0.755714507852589,0.24428549214741097
Southport Ave & Clybourn Ave,556,41.920780275857247,-87.663711340182047,5193,3581,1612,0.689582129790102,0.31041787020989792
Manor Ave & Leland Ave,408,41.965876906604585,-87.700816523082111,1724,1279,445,0.74187935034802788,0.25812064965197218
Loomis St & Lexington St,404,41.872191360101951,-87.661494895885667,11155,8959,2196,0.80313760645450472,0.19686239354549528
Larrabee St & Kingsbury St,369,41.897762747527892,-87.64291267417839,11664,9471,2193,0.81198559670781889,0.18801440329218108
Vernon Ave & 107th St,609,41.70020516593376,-87.612320743511788,39,0,39,0.0,1.0
HQ QR,310,41.8899,-87.6803,4,0,4,0.0,1.0
Greenwood Ave & 91st St,274,41.7285614850053,-87.5972832598313,28,0,28,0.0,1.0
Commercial Ave & 130th St,166,41.659145835155172,-87.550772850213079,15,0,15,0.0,1.0
Avenue O & 118th St,40,41.681026876339764,-87.53795817000298,17,0,17,0.0,1.0
Watson Testing - Divvy,633,41.894744726971744,-87.730884581500518,14,0,14,0.0,1.0
Avenue O & 134th St,41,41.651915718427688,-87.539632851746063,27,0,27,0.0,1.0
Lawndale Ave & 111th St,380,41.691323095238104,-87.712829869047624,7,0,7,0.0,1.0
Hale Ave & 107th St,276,41.699223513888889,-87.668862131944451,16,0,16,0.0,1.0
Western Ave & 104th St,648,41.70454766666667,-87.681168583333331,1,1,0,1.0,0.0
Base - 2132 W Hubbard Warehouse,45,41.889946336548149,-87.680376273228973,1,1,0,1.0,0.0
Hegewisch Metra Station,303,41.648500631332048,-87.5460896938095,1,1,0,1.0,0.0
Wentworth Ave & 104th St,642,41.705342222222221,-87.62898542857144,6,1,5,0.16666666666666666,0.83333333333333337
Eberhart Ave & 131st St,227,41.657994598188928,-87.610778076431671,12,2,10,0.16666666666666666,0.83333333333333337
Jeffery Blvd & 76th St,322,41.757256544333188,-87.57589266385834,246,41,205,0.16666666666666666,0.83333333333333337
